{"type": "FeatureCollection", "features": [{"geometry": {"type": "Point", "coordinates": [-125.246536, 50.033366]}, "type": "Feature", "properties": {"province": "BC", "city": "CAMPBELL RIVER", "postal_code": "V9W8C9", "name": "CAMPBELL RIVER,BC", "address": "1444 ISLAND HIGHWAY", "id": 150456, "phone": "2502865400", "description": "CAMPBELL RIVER,BC (150456)<br>1444 ISLAND HIGHWAY<br>CAMPBELL RIVER, BC<br>V9W8C9<br>2502865400"}}, {"geometry": {"type": "Point", "coordinates": [-124.965021, 49.712163]}, "type": "Feature", "properties": {"province": "BC", "city": "COURTENAY", "postal_code": "V9N9E5", "name": "COURTENAY", "address": "388 LERWICK ROAD", "id": 150457, "phone": "2503345400", "description": "COURTENAY (150457)<br>388 LERWICK ROAD<br>COURTENAY, BC<br>V9N9E5<br>2503345400"}}, {"geometry": {"type": "Point", "coordinates": [-124.050018, 49.232365]}, "type": "Feature", "properties": {"province": "BC", "city": "NANAIMO", "postal_code": "V9T2L9", "name": "NANAIMO", "address": "6555 METRAL STREET", "id": 150458, "phone": "2503909093", "description": "NANAIMO (150458)<br>6555 METRAL STREET<br>NANAIMO, BC<br>V9T2L9<br>2503909093"}}, {"geometry": {"type": "Point", "coordinates": [-123.719755, 48.802133]}, "type": "Feature", "properties": {"province": "BC", "city": "DUNCAN", "postal_code": "V9L6C6", "name": "DUNCAN", "address": "1 - 2980 DRINKWATER ROAD", "id": 150459, "phone": "2507372360", "description": "DUNCAN (150459)<br>1 - 2980 DRINKWATER ROAD<br>DUNCAN, BC<br>V9L6C6<br>2507372360"}}, {"geometry": {"type": "Point", "coordinates": [-123.499373, 48.461232]}, "type": "Feature", "properties": {"province": "BC", "city": "VICTORIA", "postal_code": "V9B3R3", "name": "VICTORIA", "address": "2400 MILLSTREAM ROAD", "id": 150460, "phone": "2503916000", "description": "VICTORIA (150460)<br>2400 MILLSTREAM ROAD<br>VICTORIA, BC<br>V9B3R3<br>2503916000"}}, {"geometry": {"type": "Point", "coordinates": [-123.333676, 48.470762]}, "type": "Feature", "properties": {"province": "BC", "city": "SAANICH", "postal_code": "V8N3E3", "name": "SAANICH", "address": "3986 SHELBOURNE STREET", "id": 150461, "phone": "2508535350", "description": "SAANICH (150461)<br>3986 SHELBOURNE STREET<br>SAANICH, BC<br>V8N3E3<br>2508535350"}}, {"geometry": {"type": "Point", "coordinates": [-123.151495, 49.721607]}, "type": "Feature", "properties": {"province": "BC", "city": "SQUAMISH", "postal_code": "V8B0M9", "name": "SQUAMISH", "address": "39251 DISCOVERY WAY", "id": 150462, "phone": "6048928800", "description": "SQUAMISH (150462)<br>39251 DISCOVERY WAY<br>SQUAMISH, BC<br>V8B0M9<br>6048928800"}}, {"geometry": {"type": "Point", "coordinates": [-123.140611, 49.325694]}, "type": "Feature", "properties": {"province": "BC", "city": "WEST VANCOUVER", "postal_code": "V7T2Z3", "name": "PARK ROYAL", "address": "840 MAIN STREET, PARK ROYAL VILLAGE", "id": 150463, "phone": "6049132630", "description": "PARK ROYAL (150463)<br>840 MAIN STREET, PARK ROYAL VILLAGE<br>WEST VANCOUVER, BC<br>V7T2Z3<br>6049132630"}}, {"geometry": {"type": "Point", "coordinates": [-123.114434, 49.264167]}, "type": "Feature", "properties": {"province": "BC", "city": "VANCOUVER", "postal_code": "V5Z2T8", "name": "CAMBIE", "address": "2388 CAMBIE STREET", "id": 150464, "phone": "6048721640", "description": "CAMBIE (150464)<br>2388 CAMBIE STREET<br>VANCOUVER, BC<br>V5Z2T8<br>6048721640"}}, {"geometry": {"type": "Point", "coordinates": [-123.083, 49.269021]}, "type": "Feature", "properties": {"province": "BC", "city": "VANCOUVER", "postal_code": "V6A4G4", "name": "VANCOUVER", "address": "900 TERMINAL AVENUE", "id": 150465, "phone": "6046081423", "description": "VANCOUVER (150465)<br>900 TERMINAL AVENUE<br>VANCOUVER, BC<br>V6A4G4<br>6046081423"}}, {"geometry": {"type": "Point", "coordinates": [-123.081076, 49.194093]}, "type": "Feature", "properties": {"province": "BC", "city": "RICHMOND", "postal_code": "V6V2W8", "name": "RICHMOND", "address": "2700 SWEDEN WAY", "id": 150466, "phone": "6043039882", "description": "RICHMOND (150466)<br>2700 SWEDEN WAY<br>RICHMOND, BC<br>V6V2W8<br>6043039882"}}, {"geometry": {"type": "Point", "coordinates": [-123.01636, 49.263012]}, "type": "Feature", "properties": {"province": "BC", "city": "BURNABY", "postal_code": "V5C6M2", "name": "BURNABY", "address": "3950 HENNING DRIVE", "id": 150467, "phone": "6042943030", "description": "BURNABY (150467)<br>3950 HENNING DRIVE<br>BURNABY, BC<br>V5C6M2<br>6042943030"}}, {"geometry": {"type": "Point", "coordinates": [-122.88763, 49.136887]}, "type": "Feature", "properties": {"province": "BC", "city": "SURREY", "postal_code": "V3W3M9", "name": "S SURREY", "address": "7350 - 120TH STREET", "id": 150468, "phone": "6045903546", "description": "S SURREY (150468)<br>7350 - 120TH STREET<br>SURREY, BC<br>V3W3M9<br>6045903546"}}, {"geometry": {"type": "Point", "coordinates": [-122.869433, 49.204097]}, "type": "Feature", "properties": {"province": "BC", "city": "SURREY", "postal_code": "V3V3K7", "name": "N SURREY", "address": "12701 - 110TH AVENUE", "id": 150469, "phone": "6045801888", "description": "N SURREY (150469)<br>12701 - 110TH AVENUE<br>SURREY, BC<br>V3V3K7<br>6045801888"}}, {"geometry": {"type": "Point", "coordinates": [-122.841775, 49.227165]}, "type": "Feature", "properties": {"province": "BC", "city": "COQUITLAM", "postal_code": "V3K6Z1", "name": "COQUITLAM", "address": "1900 UNITED BOULEVARD", "id": 150470, "phone": "6045406226", "description": "COQUITLAM (150470)<br>1900 UNITED BOULEVARD<br>COQUITLAM, BC<br>V3K6Z1<br>6045406226"}}, {"geometry": {"type": "Point", "coordinates": [-122.7809, 49.047512]}, "type": "Feature", "properties": {"province": "BC", "city": "SURREY", "postal_code": "V3S0C8", "name": "SURREY", "address": "2525-160TH STREET", "id": 150471, "phone": "6045423520", "description": "SURREY (150471)<br>2525-160TH STREET<br>SURREY, BC<br>V3S0C8<br>6045423520"}}, {"geometry": {"type": "Point", "coordinates": [-122.780529, 53.86571]}, "type": "Feature", "properties": {"province": "BC", "city": "PRINCE GEORGE", "postal_code": "V2N6Z5", "name": "PRINCE GEORGE", "address": "5959 O'GRADY ROAD", "id": 150472, "phone": "2509063610", "description": "PRINCE GEORGE (150472)<br>5959 O'GRADY ROAD<br>PRINCE GEORGE, BC<br>V2N6Z5<br>2509063610"}}, {"geometry": {"type": "Point", "coordinates": [-122.742833, 49.257396]}, "type": "Feature", "properties": {"province": "BC", "city": "PORT COQUITLAM", "postal_code": "V3B8B2", "name": "PORT COQUITLAM", "address": "1069 NICOLA DR.", "id": 150473, "phone": "6044683360", "description": "PORT COQUITLAM (150473)<br>1069 NICOLA DR.<br>PORT COQUITLAM, BC<br>V3B8B2<br>6044683360"}}, {"geometry": {"type": "Point", "coordinates": [-122.667317, 49.121712]}, "type": "Feature", "properties": {"province": "BC", "city": "LANGLEY", "postal_code": "V2Y1P2", "name": "LANGLEY", "address": "6550 - 200TH STREET", "id": 150474, "phone": "6045141788", "description": "LANGLEY (150474)<br>6550 - 200TH STREET<br>LANGLEY, BC<br>V2Y1P2<br>6045141788"}}, {"geometry": {"type": "Point", "coordinates": [-122.270834, 49.037361]}, "type": "Feature", "properties": {"province": "BC", "city": "ABBOTSFORD", "postal_code": "V2S8K1", "name": "ABBOTSFORD", "address": "1956 VEDDER WAY", "id": 150475, "phone": "6048514400", "description": "ABBOTSFORD (150475)<br>1956 VEDDER WAY<br>ABBOTSFORD, BC<br>V2S8K1<br>6048514400"}}, {"geometry": {"type": "Point", "coordinates": [-120.373776, 50.666952]}, "type": "Feature", "properties": {"province": "BC", "city": "KAMLOOPS", "postal_code": "V2E2N1", "name": "KAMLOOPS", "address": "1020 HILLSIDE DRIVE", "id": 150476, "phone": "2503714300", "description": "KAMLOOPS (150476)<br>1020 HILLSIDE DRIVE<br>KAMLOOPS, BC<br>V2E2N1<br>2503714300"}}, {"geometry": {"type": "Point", "coordinates": [-119.611739, 49.837764]}, "type": "Feature", "properties": {"province": "BC", "city": "WESTBANK", "postal_code": "V4T2Z1", "name": "WESTBANK", "address": "401-3350 CARRINGTON ROAD", "id": 150477, "phone": "2507072300", "description": "WESTBANK (150477)<br>401-3350 CARRINGTON ROAD<br>WESTBANK, BC<br>V4T2Z1<br>2507072300"}}, {"geometry": {"type": "Point", "coordinates": [-119.428814, 49.886987]}, "type": "Feature", "properties": {"province": "BC", "city": "KELOWNA", "postal_code": "V1X7K2", "name": "KELOWNA", "address": "2515 ENTERPRISE WAY", "id": 150478, "phone": "2509794500", "description": "KELOWNA (150478)<br>2515 ENTERPRISE WAY<br>KELOWNA, BC<br>V1X7K2<br>2509794500"}}, {"geometry": {"type": "Point", "coordinates": [-119.268284, 50.287464]}, "type": "Feature", "properties": {"province": "BC", "city": "VERNON", "postal_code": "V1T9V1", "name": "VERNON", "address": "5501 ANDERSON WAY", "id": 150479, "phone": "2505501600", "description": "VERNON (150479)<br>5501 ANDERSON WAY<br>VERNON, BC<br>V1T9V1<br>2505501600"}}, {"geometry": {"type": "Point", "coordinates": [-118.834765, 55.172324]}, "type": "Feature", "properties": {"province": "AB", "city": "GRAND PRAIRIE", "postal_code": "T8V7H1", "name": "GRANDE PRAIRIE", "address": "11222 - 103RD AVENUE", "id": 150480, "phone": "7808313160", "description": "GRANDE PRAIRIE (150480)<br>11222 - 103RD AVENUE<br>GRAND PRAIRIE, AB<br>T8V7H1<br>7808313160"}}, {"geometry": {"type": "Point", "coordinates": [-114.24243, 51.107759]}, "type": "Feature", "properties": {"province": "AB", "city": "CALGARY", "postal_code": "T3L0A2", "name": "TUSCANY", "address": "5019 NOSE HILL DRIVE NW", "id": 150481, "phone": "4032414060", "description": "TUSCANY (150481)<br>5019 NOSE HILL DRIVE NW<br>CALGARY, AB<br>T3L0A2<br>4032414060"}}, {"geometry": {"type": "Point", "coordinates": [-114.161175, 51.154905]}, "type": "Feature", "properties": {"province": "AB", "city": "CALGARY", "postal_code": "T3R0A1", "name": "BEACON HILL", "address": "11320 SARCEE TRAIL NW", "id": 150482, "phone": "4033743860", "description": "BEACON HILL (150482)<br>11320 SARCEE TRAIL NW<br>CALGARY, AB<br>T3R0A1<br>4033743860"}}, {"geometry": {"type": "Point", "coordinates": [-114.105085, 51.067176]}, "type": "Feature", "properties": {"province": "AB", "city": "CALGARY", "postal_code": "T2M0L8", "name": "CALGARY NORTH HILL", "address": "1818 - 16TH AVE. N.W.", "id": 150483, "phone": "4032847925", "description": "CALGARY NORTH HILL (150483)<br>1818 - 16TH AVE. N.W.<br>CALGARY, AB<br>T2M0L8<br>4032847925"}}, {"geometry": {"type": "Point", "coordinates": [-114.103919, 51.067554]}, "type": "Feature", "properties": {"province": "MB", "city": "BRANDON", "postal_code": "R7A7S1", "name": "BRANDON", "address": "801 - 18TH STREET NORTH", "id": 150484, "phone": "2045713300", "description": "BRANDON (150484)<br>801 - 18TH STREET NORTH<br>BRANDON, MB<br>R7A7S1<br>2045713300"}}, {"geometry": {"type": "Point", "coordinates": [-114.069229, 50.996196]}, "type": "Feature", "properties": {"province": "AB", "city": "CALGARY", "postal_code": "T2H0K6", "name": "CHINOOK", "address": "6500 MACLEOD TRAIL S.W.", "id": 150485, "phone": "4032583800", "description": "CHINOOK (150485)<br>6500 MACLEOD TRAIL S.W.<br>CALGARY, AB<br>T2H0K6<br>4032583800"}}, {"geometry": {"type": "Point", "coordinates": [-114.062663, 51.155151]}, "type": "Feature", "properties": {"province": "AB", "city": "CALGARY", "postal_code": "T3K5H2", "name": "COUNTRY HILLS", "address": "388 COUNTRY HILLS BOULEVARD", "id": 150486, "phone": "4032267500", "description": "COUNTRY HILLS (150486)<br>388 COUNTRY HILLS BOULEVARD<br>CALGARY, AB<br>T3K5H2<br>4032267500"}}, {"geometry": {"type": "Point", "coordinates": [-114.060018, 50.897046]}, "type": "Feature", "properties": {"province": "AB", "city": "CALGARY", "postal_code": "T2Y3S4", "name": "SHAWNESSY", "address": "390 SHAWVILLE BLVD. S.E.", "id": 150487, "phone": "4032015611", "description": "SHAWNESSY (150487)<br>390 SHAWVILLE BLVD. S.E.<br>CALGARY, AB<br>T2Y3S4<br>4032015611"}}, {"geometry": {"type": "Point", "coordinates": [-114.006201, 51.260416]}, "type": "Feature", "properties": {"province": "AB", "city": "AIRDRIE", "postal_code": "T4B3G5", "name": "AIRDRIE", "address": "2925 MAIN STREET. SW", "id": 150488, "phone": "4039453865", "description": "AIRDRIE (150488)<br>2925 MAIN STREET. SW<br>AIRDRIE, AB<br>T4B3G5<br>4039453865"}}, {"geometry": {"type": "Point", "coordinates": [-113.984461, 51.053158]}, "type": "Feature", "properties": {"province": "AB", "city": "CALGARY", "postal_code": "T2A7S9", "name": "MARLBOROUGH", "address": "343 - 36TH STREET N.E.", "id": 150489, "phone": "4032481222", "description": "MARLBOROUGH (150489)<br>343 - 36TH STREET N.E.<br>CALGARY, AB<br>T2A7S9<br>4032481222"}}, {"geometry": {"type": "Point", "coordinates": [-113.960782, 50.933307]}, "type": "Feature", "properties": {"province": "AB", "city": "CALGARY", "postal_code": "T2Z4E7", "name": "CALGARY SE", "address": "5125 - 126TH AVENUE SE", "id": 150490, "phone": "4032578750", "description": "CALGARY SE (150490)<br>5125 - 126TH AVENUE SE<br>CALGARY, AB<br>T2Z4E7<br>4032578750"}}, {"geometry": {"type": "Point", "coordinates": [-113.950316, 50.704078]}, "type": "Feature", "properties": {"province": "AB", "city": "OKOTOKS", "postal_code": "T1S0G1", "name": "OKOTOKS", "address": "10-101 SOUTHBANK BOULEVARD", "id": 150491, "phone": "4039954710", "description": "OKOTOKS (150491)<br>10-101 SOUTHBANK BOULEVARD<br>OKOTOKS, AB<br>T1S0G1<br>4039954710"}}, {"geometry": {"type": "Point", "coordinates": [-113.929663, 53.542135]}, "type": "Feature", "properties": {"province": "AB", "city": "SPRUCE GROVE", "postal_code": "T7X3X3", "name": "SPRUCE GROVE", "address": "180 HIGHWAY # 16A", "id": 150492, "phone": "7809605600", "description": "SPRUCE GROVE (150492)<br>180 HIGHWAY # 16A<br>SPRUCE GROVE, AB<br>T7X3X3<br>7809605600"}}, {"geometry": {"type": "Point", "coordinates": [-113.815255, 52.236197]}, "type": "Feature", "properties": {"province": "AB", "city": "RED DEER", "postal_code": "T4R3A2", "name": "RED DEER", "address": "2030 - 50TH AVENUE", "id": 150493, "phone": "4033587550", "description": "RED DEER (150493)<br>2030 - 50TH AVENUE<br>RED DEER, AB<br>T4R3A2<br>4033587550"}}, {"geometry": {"type": "Point", "coordinates": [-113.635907, 53.662156]}, "type": "Feature", "properties": {"province": "AB", "city": "ST. ALBERT", "postal_code": "T8N7H5", "name": "ST ALBERT", "address": "750 ST. ALBERT ROAD", "id": 150494, "phone": "7804584026", "description": "ST ALBERT (150494)<br>750 ST. ALBERT ROAD<br>ST. ALBERT, AB<br>T8N7H5<br>7804584026"}}, {"geometry": {"type": "Point", "coordinates": [-113.620513, 53.537224]}, "type": "Feature", "properties": {"province": "AB", "city": "EDMONTON", "postal_code": "T5T5L5", "name": "WESTEND", "address": "17404 - 99TH AVENUE N.W.", "id": 150495, "phone": "7804845100", "description": "WESTEND (150495)<br>17404 - 99TH AVENUE N.W.<br>EDMONTON, AB<br>T5T5L5<br>7804845100"}}, {"geometry": {"type": "Point", "coordinates": [-113.60673, 53.438509]}, "type": "Feature", "properties": {"province": "AB", "city": "EDMONTON", "postal_code": "T6W0H3", "name": "EDMONTON WINDERMERE", "address": "5120 WINDERMERE BOULEVARD NW", "id": 150496, "phone": "7809897460", "description": "EDMONTON WINDERMERE (150496)<br>5120 WINDERMERE BOULEVARD NW<br>EDMONTON, AB<br>T6W0H3<br>7809897460"}}, {"geometry": {"type": "Point", "coordinates": [-113.553379, 53.56189]}, "type": "Feature", "properties": {"province": "AB", "city": "EDMONTON", "postal_code": "T5M3L7", "name": "EDMONTON WESTMOUNT", "address": "650 - 1125 WESTMOUNT SHOPPING CENTRE CIRCLE, NW", "id": 150497, "phone": "7807329225", "description": "EDMONTON WESTMOUNT (150497)<br>650 - 1125 WESTMOUNT SHOPPING CENTRE CIRCLE, NW<br>EDMONTON, AB<br>T5M3L7<br>7807329225"}}, {"geometry": {"type": "Point", "coordinates": [-113.552248, 53.601381]}, "type": "Feature", "properties": {"province": "AB", "city": "EDMONTON", "postal_code": "T5L5C7", "name": "SKYVIEW", "address": "13360 - 137TH AVENUE", "id": 150498, "phone": "7804724200", "description": "SKYVIEW (150498)<br>13360 - 137TH AVENUE<br>EDMONTON, AB<br>T5L5C7<br>7804724200"}}, {"geometry": {"type": "Point", "coordinates": [-113.496238, 53.503425]}, "type": "Feature", "properties": {"province": "AB", "city": "EDMONTON", "postal_code": "T6H2L3", "name": "EDMONTON STRATHCONA", "address": "6725 - 104TH STREET N.W.", "id": 150499, "phone": "7804314725", "description": "EDMONTON STRATHCONA (150499)<br>6725 - 104TH STREET N.W.<br>EDMONTON, AB<br>T6H2L3<br>7804314725"}}, {"geometry": {"type": "Point", "coordinates": [-113.489637, 53.450195]}, "type": "Feature", "properties": {"province": "AB", "city": "EDMONTON", "postal_code": "T6N1J2", "name": "SOUTH COMMON", "address": "2020 - 101TH STREET S.W.", "id": 150500, "phone": "7804336500", "description": "SOUTH COMMON (150500)<br>2020 - 101TH STREET S.W.<br>EDMONTON, AB<br>T6N1J2<br>7804336500"}}, {"geometry": {"type": "Point", "coordinates": [-113.417377, 53.594288]}, "type": "Feature", "properties": {"province": "AB", "city": "EDMONTON", "postal_code": "T5A4Z8", "name": "CLAREVIEW", "address": "13304 - 50TH STREET N.W.", "id": 150501, "phone": "7804787100", "description": "CLAREVIEW (150501)<br>13304 - 50TH STREET N.W.<br>EDMONTON, AB<br>T5A4Z8<br>7804787100"}}, {"geometry": {"type": "Point", "coordinates": [-113.370526, 53.48019]}, "type": "Feature", "properties": {"province": "AB", "city": "EDMONTON", "postal_code": "T6T0B4", "name": "WHITEMUD", "address": "4430 - 17TH STREET N.W.", "id": 150502, "phone": "7805773575", "description": "WHITEMUD (150502)<br>4430 - 17TH STREET N.W.<br>EDMONTON, AB<br>T6T0B4<br>7805773575"}}, {"geometry": {"type": "Point", "coordinates": [-113.30113, 53.542523]}, "type": "Feature", "properties": {"province": "AB", "city": "SHERWOOD PARK", "postal_code": "T8H1X1", "name": "SHERWOOD PARK", "address": "200-390 BASELINE ROAD", "id": 150503, "phone": "7804177875", "description": "SHERWOOD PARK (150503)<br>200-390 BASELINE ROAD<br>SHERWOOD PARK, AB<br>T8H1X1<br>7804177875"}}, {"geometry": {"type": "Point", "coordinates": [-112.796258, 49.655856]}, "type": "Feature", "properties": {"province": "AB", "city": "LETHBRIDGE", "postal_code": "T1K7V1", "name": "LETHBRIDGE", "address": "3708 MAYOR MAGRATH DR. SOUTH", "id": 150504, "phone": "4033313575", "description": "LETHBRIDGE (150504)<br>3708 MAYOR MAGRATH DR. SOUTH<br>LETHBRIDGE, AB<br>T1K7V1<br>4033313575"}}, {"geometry": {"type": "Point", "coordinates": [-110.649842, 49.997103]}, "type": "Feature", "properties": {"province": "AB", "city": "MEDICINE HAT", "postal_code": "T1B4V7", "name": "MEDICINE HAT", "address": "1851 STRACHAN ROAD S.E.", "id": 150505, "phone": "4035814300", "description": "MEDICINE HAT (150505)<br>1851 STRACHAN ROAD S.E.<br>MEDICINE HAT, AB<br>T1B4V7<br>4035814300"}}, {"geometry": {"type": "Point", "coordinates": [-110.058239, 53.276223]}, "type": "Feature", "properties": {"province": "AB", "city": "LLOYDMINSTER", "postal_code": "T9V0X9", "name": "LLOYDMINSTER", "address": "7705 - 44TH STREET", "id": 150506, "phone": "7808709420", "description": "LLOYDMINSTER (150506)<br>7705 - 44TH STREET<br>LLOYDMINSTER, AB<br>T9V0X9<br>7808709420"}}, {"geometry": {"type": "Point", "coordinates": [-106.657199, 52.15606]}, "type": "Feature", "properties": {"province": "SK", "city": "SASKATOON", "postal_code": "S7K0V1", "name": "SASKATOON", "address": "707 CIRCLE DRIVE EAST", "id": 150507, "phone": "3066516250", "description": "SASKATOON (150507)<br>707 CIRCLE DRIVE EAST<br>SASKATOON, SK<br>S7K0V1<br>3066516250"}}, {"geometry": {"type": "Point", "coordinates": [-106.641109, 52.086409]}, "type": "Feature", "properties": {"province": "SK", "city": "SASKATOON", "postal_code": "S7T0B5", "name": "SASKATOON SOUTH", "address": "3043 CLARENCE AVE SOUTH", "id": 150508, "phone": "3066574100", "description": "SASKATOON SOUTH (150508)<br>3043 CLARENCE AVE SOUTH<br>SASKATOON, SK<br>S7T0B5<br>3066574100"}}, {"geometry": {"type": "Point", "coordinates": [-104.643614, 50.494715]}, "type": "Feature", "properties": {"province": "SK", "city": "REGINA NW", "postal_code": "S4X4V3", "name": "REGINA NORTH WEST", "address": "1030 PASQUA STREET NORTH", "id": 150509, "phone": "3065645700", "description": "REGINA NORTH WEST (150509)<br>1030 PASQUA STREET NORTH<br>REGINA NW, SK<br>S4X4V3<br>3065645700"}}, {"geometry": {"type": "Point", "coordinates": [-104.557697, 50.445992]}, "type": "Feature", "properties": {"province": "SK", "city": "REGINA", "postal_code": "S4N6E6", "name": "REGINA", "address": "1867 VICTORIA AVENUE E.", "id": 150510, "phone": "3067611919", "description": "REGINA (150510)<br>1867 VICTORIA AVENUE E.<br>REGINA, SK<br>S4N6E6<br>3067611919"}}, {"geometry": {"type": "Point", "coordinates": [-97.201065, 49.824814]}, "type": "Feature", "properties": {"province": "MB", "city": "WINNIPEG", "postal_code": "R3P2M4", "name": "WINNIPEG SW", "address": "1645 KENASTON BLVD.", "id": 150511, "phone": "2049287110", "description": "WINNIPEG SW (150511)<br>1645 KENASTON BLVD.<br>WINNIPEG, MB<br>R3P2M4<br>2049287110"}}, {"geometry": {"type": "Point", "coordinates": [-97.19456, 49.889574]}, "type": "Feature", "properties": {"province": "MB", "city": "WINNIPEG", "postal_code": "R3G3P5", "name": "POLO PARK", "address": "727 EMPRESS STREET", "id": 150512, "phone": "2047790703", "description": "POLO PARK (150512)<br>727 EMPRESS STREET<br>WINNIPEG, MB<br>R3G3P5<br>2047790703"}}, {"geometry": {"type": "Point", "coordinates": [-97.14488, 49.954022]}, "type": "Feature", "properties": {"province": "MB", "city": "WINNIPEG", "postal_code": "R2V3J7", "name": "WINNIPEG NORTH", "address": "845 LEILA AVE", "id": 150513, "phone": "2043365530", "description": "WINNIPEG NORTH (150513)<br>845 LEILA AVE<br>WINNIPEG, MB<br>R2V3J7<br>2043365530"}}, {"geometry": {"type": "Point", "coordinates": [-97.09762, 49.838593]}, "type": "Feature", "properties": {"province": "MB", "city": "WINNIPEG", "postal_code": "R2M3E8", "name": "ST VITAL", "address": "1999 BISHOP GRANDIN BLVD.", "id": 150514, "phone": "2042539411", "description": "ST VITAL (150514)<br>1999 BISHOP GRANDIN BLVD.<br>WINNIPEG, MB<br>R2M3E8<br>2042539411"}}, {"geometry": {"type": "Point", "coordinates": [-97.06837, 49.895055]}, "type": "Feature", "properties": {"province": "MB", "city": "WINNIPEG", "postal_code": "R2C3B4", "name": "CROSSROADS", "address": "1590 REGENT AVENUE W", "id": 150515, "phone": "2046545400", "description": "CROSSROADS (150515)<br>1590 REGENT AVENUE W<br>WINNIPEG, MB<br>R2C3B4<br>2046545400"}}, {"geometry": {"type": "Point", "coordinates": [-89.236814, 48.402545]}, "type": "Feature", "properties": {"province": "ON", "city": "THUNDER BAY", "postal_code": "P7B5L6", "name": "THUNDER BAY", "address": "359 MAIN STREET", "id": 150516, "phone": "8076241100", "description": "THUNDER BAY (150516)<br>359 MAIN STREET<br>THUNDER BAY, ON<br>P7B5L6<br>8076241100"}}, {"geometry": {"type": "Point", "coordinates": [-84.315631, 46.543204]}, "type": "Feature", "properties": {"province": "ON", "city": "SAULT STE. MARIE", "postal_code": "P6B4Z9", "name": "SAULT STE MARIE", "address": "530 GREAT NORTHERN ROAD", "id": 150517, "phone": "7052541150", "description": "SAULT STE MARIE (150517)<br>530 GREAT NORTHERN ROAD<br>SAULT STE. MARIE, ON<br>P6B4Z9<br>7052541150"}}, {"geometry": {"type": "Point", "coordinates": [-82.972984, 42.26119]}, "type": "Feature", "properties": {"province": "ON", "city": "WINDSOR", "postal_code": "N8W1Z7", "name": "WINDSOR", "address": "1925 DIVISION ROAD", "id": 150518, "phone": "5199673700", "description": "WINDSOR (150518)<br>1925 DIVISION ROAD<br>WINDSOR, ON<br>N8W1Z7<br>5199673700"}}, {"geometry": {"type": "Point", "coordinates": [-82.946945, 42.3133]}, "type": "Feature", "properties": {"province": "ON", "city": "WINDSOR", "postal_code": "N8T1E6", "name": "WINDSOR EAST", "address": "6630 TECUMSEH ROAD EAST", "id": 150519, "phone": "5199745420", "description": "WINDSOR EAST (150519)<br>6630 TECUMSEH ROAD EAST<br>WINDSOR, ON<br>N8T1E6<br>5199745420"}}, {"geometry": {"type": "Point", "coordinates": [-82.356184, 42.987258]}, "type": "Feature", "properties": {"province": "ON", "city": "SARNIA", "postal_code": "N7S6L5", "name": "SARNIA", "address": "1350 QUINN DRIVE", "id": 150520, "phone": "5193332300", "description": "SARNIA (150520)<br>1350 QUINN DRIVE<br>SARNIA, ON<br>N7S6L5<br>5193332300"}}, {"geometry": {"type": "Point", "coordinates": [-82.224234, 42.431736]}, "type": "Feature", "properties": {"province": "ON", "city": "CHATHAM", "postal_code": "N7M5J7", "name": "CHATHAM", "address": "8582 PIONEER LINE", "id": 150521, "phone": "5193802040", "description": "CHATHAM (150521)<br>8582 PIONEER LINE<br>CHATHAM, ON<br>N7M5J7<br>5193802040"}}, {"geometry": {"type": "Point", "coordinates": [-81.283548, 42.937371]}, "type": "Feature", "properties": {"province": "ON", "city": "LONDON", "postal_code": "N6L1R4", "name": "LONDON SW", "address": "3035 WONDERLAND ROAD SOUTH", "id": 150522, "phone": "5196911400", "description": "LONDON SW (150522)<br>3035 WONDERLAND ROAD SOUTH<br>LONDON, ON<br>N6L1R4<br>5196911400"}}, {"geometry": {"type": "Point", "coordinates": [-81.257316, 43.035452]}, "type": "Feature", "properties": {"province": "ON", "city": "LONDON", "postal_code": "N5X1L1", "name": "NORTH LONDON", "address": "600 FANSHAWE PARK RD. E.", "id": 150523, "phone": "5198505900", "description": "NORTH LONDON (150523)<br>600 FANSHAWE PARK RD. E.<br>LONDON, ON<br>N5X1L1<br>5198505900"}}, {"geometry": {"type": "Point", "coordinates": [-81.17294, 43.007387]}, "type": "Feature", "properties": {"province": "ON", "city": "LONDON", "postal_code": "N5W6H1", "name": "LONDON EAST", "address": "448 CLARKE ROAD", "id": 150524, "phone": "5194575800", "description": "LONDON EAST (150524)<br>448 CLARKE ROAD<br>LONDON, ON<br>N5W6H1<br>5194575800"}}, {"geometry": {"type": "Point", "coordinates": [-80.941785, 46.503402]}, "type": "Feature", "properties": {"province": "ON", "city": "SUDBURY", "postal_code": "P3B4K5", "name": "SUDBURY", "address": "1500 MARCUS DRIVE", "id": 150525, "phone": "7055252960", "description": "SUDBURY (150525)<br>1500 MARCUS DRIVE<br>SUDBURY, ON<br>P3B4K5<br>7055252960"}}, {"geometry": {"type": "Point", "coordinates": [-80.908457, 44.573946]}, "type": "Feature", "properties": {"province": "ON", "city": "OWEN SOUND", "postal_code": "N4K5N3", "name": "OWEN SOUND", "address": "1590 - 20TH AVENUE EAST", "id": 150526, "phone": "5193723970", "description": "OWEN SOUND (150526)<br>1590 - 20TH AVENUE EAST<br>OWEN SOUND, ON<br>N4K5N3<br>5193723970"}}, {"geometry": {"type": "Point", "coordinates": [-80.731188, 43.116728]}, "type": "Feature", "properties": {"province": "ON", "city": "WOODSTOCK", "postal_code": "N4V1B9", "name": "WOODSTOCK", "address": "901 JULIANA DRIVE", "id": 150527, "phone": "5194215500", "description": "WOODSTOCK (150527)<br>901 JULIANA DRIVE<br>WOODSTOCK, ON<br>N4V1B9<br>5194215500"}}, {"geometry": {"type": "Point", "coordinates": [-80.533469, 43.503136]}, "type": "Feature", "properties": {"province": "ON", "city": "WATERLOO", "postal_code": "N2V2J5", "name": "WATERLOO", "address": "600 KING STREET NORTH", "id": 150528, "phone": "5198830580", "description": "WATERLOO (150528)<br>600 KING STREET NORTH<br>WATERLOO, ON<br>N2V2J5<br>5198830580"}}, {"geometry": {"type": "Point", "coordinates": [-80.516185, 43.414108]}, "type": "Feature", "properties": {"province": "ON", "city": "KITCHENER", "postal_code": "N2E4E2", "name": "KITCHENER WEST", "address": "1450 OTTAWA STREET SOUTH", "id": 150529, "phone": "5195694300", "description": "KITCHENER WEST (150529)<br>1450 OTTAWA STREET SOUTH<br>KITCHENER, ON<br>N2E4E2<br>5195694300"}}, {"geometry": {"type": "Point", "coordinates": [-80.388698, 43.407753]}, "type": "Feature", "properties": {"province": "ON", "city": "KITCHENER", "postal_code": "N2P2J4", "name": "KITCHENER", "address": "100 GATEWAY PARK DRIVE", "id": 150530, "phone": "5196503900", "description": "KITCHENER (150530)<br>100 GATEWAY PARK DRIVE<br>KITCHENER, ON<br>N2P2J4<br>5196503900"}}, {"geometry": {"type": "Point", "coordinates": [-80.283262, 43.562297]}, "type": "Feature", "properties": {"province": "ON", "city": "GUELPH", "postal_code": "N1H1G8", "name": "GUELPH", "address": "63 WOODLAWN AVENUE WEST", "id": 150531, "phone": "5197803400", "description": "GUELPH (150531)<br>63 WOODLAWN AVENUE WEST<br>GUELPH, ON<br>N1H1G8<br>5197803400"}}, {"geometry": {"type": "Point", "coordinates": [-80.238253, 43.165134]}, "type": "Feature", "properties": {"province": "ON", "city": "BRANTFORD", "postal_code": "N3R7J4", "name": "BRANTFORD", "address": "25 HOLIDAY DRIVE", "id": 150532, "phone": "5197573534", "description": "BRANTFORD (150532)<br>25 HOLIDAY DRIVE<br>BRANTFORD, ON<br>N3R7J4<br>5197573534"}}, {"geometry": {"type": "Point", "coordinates": [-80.235224, 44.49904]}, "type": "Feature", "properties": {"province": "ON", "city": "COLLINGWOOD", "postal_code": "L9Y3J6", "name": "COLLINGWOOD", "address": "10 HIGH STREET", "id": 150533, "phone": "7054463100", "description": "COLLINGWOOD (150533)<br>10 HIGH STREET<br>COLLINGWOOD, ON<br>L9Y3J6<br>7054463100"}}, {"geometry": {"type": "Point", "coordinates": [-80.123925, 26.932477]}, "type": "Feature", "properties": {"province": "ON", "city": "CAMBRIDGE", "postal_code": "N1R8E2", "name": "CAMBRIDGE", "address": "35 PINE BUSH DRIVE", "id": 150534, "phone": "5196242700", "description": "CAMBRIDGE (150534)<br>35 PINE BUSH DRIVE<br>CAMBRIDGE, ON<br>N1R8E2<br>5196242700"}}, {"geometry": {"type": "Point", "coordinates": [-80.093382, 43.927579]}, "type": "Feature", "properties": {"province": "ON", "city": "ORANGEVILLE", "postal_code": "L9W1G7", "name": "ORANGEVILLE", "address": "49 FOURTH AVENUE", "id": 150535, "phone": "5199409061", "description": "ORANGEVILLE (150535)<br>49 FOURTH AVENUE<br>ORANGEVILLE, ON<br>L9W1G7<br>5199409061"}}, {"geometry": {"type": "Point", "coordinates": [-79.94475, 43.230072]}, "type": "Feature", "properties": {"province": "ON", "city": "ANCASTER", "postal_code": "L9K1J9", "name": "ANCASTER", "address": "122 MARTINDALE CRESCENT", "id": 150536, "phone": "9053045900", "description": "ANCASTER (150536)<br>122 MARTINDALE CRESCENT<br>ANCASTER, ON<br>L9K1J9<br>9053045900"}}, {"geometry": {"type": "Point", "coordinates": [-79.87543, 43.536366]}, "type": "Feature", "properties": {"province": "ON", "city": "MILTON", "postal_code": "L9T0A5", "name": "MILTON", "address": "1013 MAPLE AVENUE", "id": 150537, "phone": "9058641200", "description": "MILTON (150537)<br>1013 MAPLE AVENUE<br>MILTON, ON<br>L9T0A5<br>9058641200"}}, {"geometry": {"type": "Point", "coordinates": [-79.873328, 44.731087]}, "type": "Feature", "properties": {"province": "ON", "city": "MIDLAND", "postal_code": "L4R4K3", "name": "MIDLAND", "address": "16775 HIGHWAY # 12", "id": 150538, "phone": "7055278800", "description": "MIDLAND (150538)<br>16775 HIGHWAY # 12<br>MIDLAND, ON<br>L4R4K3<br>7055278800"}}, {"geometry": {"type": "Point", "coordinates": [-79.813205, 43.19344]}, "type": "Feature", "properties": {"province": "ON", "city": "HAMILTON", "postal_code": "L8W3Y5", "name": "HAMILTON MOUNTAIN", "address": "1775 STONE CHURCH ROAD EAST", "id": 150539, "phone": "9055744400", "description": "HAMILTON MOUNTAIN (150539)<br>1775 STONE CHURCH ROAD EAST<br>HAMILTON, ON<br>L8W3Y5<br>9055744400"}}, {"geometry": {"type": "Point", "coordinates": [-79.806878, 43.355928]}, "type": "Feature", "properties": {"province": "ON", "city": "BURLINGTON", "postal_code": "L7M4M9", "name": "BURLINGTON", "address": "3050 DAVIDSON COURT", "id": 150540, "phone": "9053311700", "description": "BURLINGTON (150540)<br>3050 DAVIDSON COURT<br>BURLINGTON, ON<br>L7M4M9<br>9053311700"}}, {"geometry": {"type": "Point", "coordinates": [-79.780262, 43.598378]}, "type": "Feature", "properties": {"province": "ON", "city": "MISSISSAUGA", "postal_code": "L5N8C5", "name": "MISSISSAUGA WEST", "address": "2920 ARGENTIA ROAD", "id": 150541, "phone": "9058143860", "description": "MISSISSAUGA WEST (150541)<br>2920 ARGENTIA ROAD<br>MISSISSAUGA, ON<br>L5N8C5<br>9058143860"}}, {"geometry": {"type": "Point", "coordinates": [-79.767014, 43.731006]}, "type": "Feature", "properties": {"province": "ON", "city": "BRAMPTON", "postal_code": "L6R2K7", "name": "BRAMPTON NORTH", "address": "60 GREAT LAKES DRIVE", "id": 150542, "phone": "9057925430", "description": "BRAMPTON NORTH (150542)<br>60 GREAT LAKES DRIVE<br>BRAMPTON, ON<br>L6R2K7<br>9057925430"}}, {"geometry": {"type": "Point", "coordinates": [-79.757687, 43.239921]}, "type": "Feature", "properties": {"province": "ON", "city": "HAMILTON", "postal_code": "L8E2X4", "name": "HAMILTON", "address": "350 CENTENNIAL PARKWAY", "id": 150543, "phone": "9055619755", "description": "HAMILTON (150543)<br>350 CENTENNIAL PARKWAY<br>HAMILTON, ON<br>L8E2X4<br>9055619755"}}, {"geometry": {"type": "Point", "coordinates": [-79.749355, 43.399361]}, "type": "Feature", "properties": {"province": "ON", "city": "OAKVILLE", "postal_code": "L6L0B1", "name": "OAKVILLE (BURLOAK)", "address": "3300 SOUTH SERVICE ROAD WEST", "id": 150544, "phone": "9054697110", "description": "OAKVILLE (BURLOAK) (150544)<br>3300 SOUTH SERVICE ROAD WEST<br>OAKVILLE, ON<br>L6L0B1<br>9054697110"}}, {"geometry": {"type": "Point", "coordinates": [-79.717411, 43.861565]}, "type": "Feature", "properties": {"province": "ON", "city": "BOLTON", "postal_code": "L7E4G1", "name": "BOLTON", "address": "12760 HIGHWAY 50", "id": 150545, "phone": "9059514100", "description": "BOLTON (150545)<br>12760 HIGHWAY 50<br>BOLTON, ON<br>L7E4G1<br>9059514100"}}, {"geometry": {"type": "Point", "coordinates": [-79.717057, 43.678865]}, "type": "Feature", "properties": {"province": "ON", "city": "BRAMPTON", "postal_code": "L6W4R8", "name": "BRAMPTON", "address": "49 FIRST GULF BOULEVARD", "id": 150546, "phone": "9054571800", "description": "BRAMPTON (150546)<br>49 FIRST GULF BOULEVARD<br>BRAMPTON, ON<br>L6W4R8<br>9054571800"}}, {"geometry": {"type": "Point", "coordinates": [-79.698695, 43.607552]}, "type": "Feature", "properties": {"province": "ON", "city": "MISSISSAUGA", "postal_code": "L5V3E4", "name": "MISSISSAUGA HEARTLAND", "address": "5975 TERRY FOX WAY", "id": 150547, "phone": "9052854000", "description": "MISSISSAUGA HEARTLAND (150547)<br>5975 TERRY FOX WAY<br>MISSISSAUGA, ON<br>L5V3E4<br>9052854000"}}, {"geometry": {"type": "Point", "coordinates": [-79.696472, 43.74732]}, "type": "Feature", "properties": {"province": "ON", "city": "BRAMPTON", "postal_code": "L6S0B8", "name": "BRAMPTON EAST", "address": "9105 AIRPORT ROAD", "id": 150548, "phone": "9054942200", "description": "BRAMPTON EAST (150548)<br>9105 AIRPORT ROAD<br>BRAMPTON, ON<br>L6S0B8<br>9054942200"}}, {"geometry": {"type": "Point", "coordinates": [-79.688046, 43.454994]}, "type": "Feature", "properties": {"province": "ON", "city": "OAKVILLE", "postal_code": "L6J2W7", "name": "TRAFALGAR VILLAGE", "address": "99 CROSS AVENUE", "id": 150549, "phone": "9058155000", "description": "TRAFALGAR VILLAGE (150549)<br>99 CROSS AVENUE<br>OAKVILLE, ON<br>L6J2W7<br>9058155000"}}, {"geometry": {"type": "Point", "coordinates": [-79.687435, 44.33955]}, "type": "Feature", "properties": {"province": "ON", "city": "BARRIE", "postal_code": "L4N8V4", "name": "BARRIE", "address": "10 BARRIE VIEW DRIVE", "id": 150550, "phone": "7057332800", "description": "BARRIE (150550)<br>10 BARRIE VIEW DRIVE<br>BARRIE, ON<br>L4N8V4<br>7057332800"}}, {"geometry": {"type": "Point", "coordinates": [-79.685086, 43.518162]}, "type": "Feature", "properties": {"province": "ON", "city": "OAKVILLE", "postal_code": "L6H5W9", "name": "OAKVILLE", "address": "2555 BRISTOL CIRCLE", "id": 150551, "phone": "9058295900", "description": "OAKVILLE (150551)<br>2555 BRISTOL CIRCLE<br>OAKVILLE, ON<br>L6H5W9<br>9058295900"}}, {"geometry": {"type": "Point", "coordinates": [-79.633392, 43.568803]}, "type": "Feature", "properties": {"province": "ON", "city": "MISSISSAUGA", "postal_code": "L5C1T7", "name": "MISSISSAUGA SOUTH", "address": "3065 MAVIS ROAD", "id": 150552, "phone": "9052816230", "description": "MISSISSAUGA SOUTH (150552)<br>3065 MAVIS ROAD<br>MISSISSAUGA, ON<br>L5C1T7<br>9052816230"}}, {"geometry": {"type": "Point", "coordinates": [-79.589334, 44.1067]}, "type": "Feature", "properties": {"province": "ON", "city": "BRADFORD", "postal_code": "L3Z0A2", "name": "BRADFORD", "address": "470 HOLLAND STREET WEST", "id": 150553, "phone": "9057782100", "description": "BRADFORD (150553)<br>470 HOLLAND STREET WEST<br>BRADFORD, ON<br>L3Z0A2<br>9057782100"}}, {"geometry": {"type": "Point", "coordinates": [-79.562308, 43.707434]}, "type": "Feature", "properties": {"province": "ON", "city": "ETOBICOKE", "postal_code": "M9W4J4", "name": "REXDALE", "address": "1983 KIPLING AVENUE", "id": 150554, "phone": "4167461357", "description": "REXDALE (150554)<br>1983 KIPLING AVENUE<br>ETOBICOKE, ON<br>M9W4J4<br>4167461357"}}, {"geometry": {"type": "Point", "coordinates": [-79.554149, 43.615804]}, "type": "Feature", "properties": {"province": "ON", "city": "ETOBICOKE", "postal_code": "M9C1A7", "name": "ETOBICOKE", "address": "193 NORTH QUEEN STREET", "id": 150555, "phone": "4166269800", "description": "ETOBICOKE (150555)<br>193 NORTH QUEEN STREET<br>ETOBICOKE, ON<br>M9C1A7<br>4166269800"}}, {"geometry": {"type": "Point", "coordinates": [-79.545659, 43.792679]}, "type": "Feature", "properties": {"province": "ON", "city": "WOODBRIDGE", "postal_code": "L4L8T2", "name": "WOODBRIDGE", "address": "140 NORTHVIEW BOULEVARD", "id": 150556, "phone": "9058511800", "description": "WOODBRIDGE (150556)<br>140 NORTHVIEW BOULEVARD<br>WOODBRIDGE, ON<br>L4L8T2<br>9058511800"}}, {"geometry": {"type": "Point", "coordinates": [-79.484497, 44.062332]}, "type": "Feature", "properties": {"province": "ON", "city": "NEWMARKET", "postal_code": "L3Y8S1", "name": "NEWMARKET", "address": "17850 YONGE STREET", "id": 150557, "phone": "9058980090", "description": "NEWMARKET (150557)<br>17850 YONGE STREET<br>NEWMARKET, ON<br>L3Y8S1<br>9058980090"}}, {"geometry": {"type": "Point", "coordinates": [-79.479429, 43.784252]}, "type": "Feature", "properties": {"province": "ON", "city": "TORONTO", "postal_code": "M3J3N2", "name": "DUFFERIN AND STEELES", "address": "2375 STEELES AVE. WEST", "id": 150558, "phone": "4166649800", "description": "DUFFERIN AND STEELES (150558)<br>2375 STEELES AVE. WEST<br>TORONTO, ON<br>M3J3N2<br>4166649800"}}, {"geometry": {"type": "Point", "coordinates": [-79.469249, 43.67107]}, "type": "Feature", "properties": {"province": "ON", "city": "TORONTO", "postal_code": "M6N5A8", "name": "STOCKYARDS", "address": "2121 ST. CLAIR AVENUE WEST", "id": 150559, "phone": "4167662800", "description": "STOCKYARDS (150559)<br>2121 ST. CLAIR AVENUE WEST<br>TORONTO, ON<br>M6N5A8<br>4167662800"}}, {"geometry": {"type": "Point", "coordinates": [-79.462247, 43.701737]}, "type": "Feature", "properties": {"province": "ON", "city": "TORONTO", "postal_code": "M6B3X8", "name": "CALEDONIA", "address": "825 CALEDONIA ROAD", "id": 150560, "phone": "4167804730", "description": "CALEDONIA (150560)<br>825 CALEDONIA ROAD<br>TORONTO, ON<br>M6B3X8<br>4167804730"}}, {"geometry": {"type": "Point", "coordinates": [-79.453212, 43.73161]}, "type": "Feature", "properties": {"province": "ON", "city": "TORONTO", "postal_code": "M3K2C8", "name": "YORKDALE", "address": "90 BILLY BISHOP WAY", "id": 150561, "phone": "4163736000", "description": "YORKDALE (150561)<br>90 BILLY BISHOP WAY<br>TORONTO, ON<br>M3K2C8<br>4163736000"}}, {"geometry": {"type": "Point", "coordinates": [-79.452141, 44.60814]}, "type": "Feature", "properties": {"province": "ON", "city": "ORILLIA", "postal_code": "L3V7Z4", "name": "ORILLIA", "address": "3225 MONARCH DR.", "id": 150562, "phone": "7053276500", "description": "ORILLIA (150562)<br>3225 MONARCH DR.<br>ORILLIA, ON<br>L3V7Z4<br>7053276500"}}, {"geometry": {"type": "Point", "coordinates": [-79.44661, 44.007034]}, "type": "Feature", "properties": {"province": "ON", "city": "AURORA", "postal_code": "L4G7G1", "name": "AURORA", "address": "15360 BAYVIEW AVENUE", "id": 150563, "phone": "9057264500", "description": "AURORA (150563)<br>15360 BAYVIEW AVENUE<br>AURORA, ON<br>L4G7G1<br>9057264500"}}, {"geometry": {"type": "Point", "coordinates": [-79.437394, 46.306709]}, "type": "Feature", "properties": {"province": "ON", "city": "NORTH BAY", "postal_code": "P1B9V6", "name": "NORTH BAY", "address": "1275 SEYMOUR STREET", "id": 150564, "phone": "7058452300", "description": "NORTH BAY (150564)<br>1275 SEYMOUR STREET<br>NORTH BAY, ON<br>P1B9V6<br>7058452300"}}, {"geometry": {"type": "Point", "coordinates": [-79.423609, 43.840604]}, "type": "Feature", "properties": {"province": "ON", "city": "RICHMOND HILL", "postal_code": "L4B4K1", "name": "RICHMOND HILL", "address": "50 RED MAPLE ROAD", "id": 150565, "phone": "9057632311", "description": "RICHMOND HILL (150565)<br>50 RED MAPLE ROAD<br>RICHMOND HILL, ON<br>L4B4K1<br>9057632311"}}, {"geometry": {"type": "Point", "coordinates": [-79.394983, 43.901669]}, "type": "Feature", "properties": {"province": "ON", "city": "RICHMOND HILL", "postal_code": "L4S1M6", "name": "RICHMOND HILL NORTH", "address": "1706 ELGIN MILLS ROAD EAST", "id": 150566, "phone": "9057877200", "description": "RICHMOND HILL NORTH (150566)<br>1706 ELGIN MILLS ROAD EAST<br>RICHMOND HILL, ON<br>L4S1M6<br>9057877200"}}, {"geometry": {"type": "Point", "coordinates": [-79.35798, 43.710588]}, "type": "Feature", "properties": {"province": "ON", "city": "TORONTO", "postal_code": "M4G4H9", "name": "LEASIDE", "address": "101 WICKSTEED AVE", "id": 150567, "phone": "4164672300", "description": "LEASIDE (150567)<br>101 WICKSTEED AVE<br>TORONTO, ON<br>M4G4H9<br>4164672300"}}, {"geometry": {"type": "Point", "coordinates": [-79.352148, 43.848182]}, "type": "Feature", "properties": {"province": "ON", "city": "MARKHAM", "postal_code": "L3R0J6", "name": "MARKHAM WEST", "address": "3155 HIGHWAY # 7", "id": 150568, "phone": "9059405900", "description": "MARKHAM WEST (150568)<br>3155 HIGHWAY # 7<br>MARKHAM, ON<br>L3R0J6<br>9059405900"}}, {"geometry": {"type": "Point", "coordinates": [-79.338269, 43.668999]}, "type": "Feature", "properties": {"province": "ON", "city": "TORONTO", "postal_code": "M4M3G6", "name": "GERRARD SQUARE", "address": "1000 GERRARD STREET EAST", "id": 150569, "phone": "4164626270", "description": "GERRARD SQUARE (150569)<br>1000 GERRARD STREET EAST<br>TORONTO, ON<br>M4M3G6<br>4164626270"}}, {"geometry": {"type": "Point", "coordinates": [-79.314234, 43.707955]}, "type": "Feature", "properties": {"province": "ON", "city": "TORONTO", "postal_code": "M4B3L8", "name": "CURITY", "address": "7 CURITY AVENUE", "id": 150570, "phone": "4167525900", "description": "CURITY (150570)<br>7 CURITY AVENUE<br>TORONTO, ON<br>M4B3L8<br>4167525900"}}, {"geometry": {"type": "Point", "coordinates": [-79.297463, 43.763111]}, "type": "Feature", "properties": {"province": "ON", "city": "SCARBOROUGH", "postal_code": "M1R4E6", "name": "ELLESMERE", "address": "428 ELLESMERE ROAD", "id": 150571, "phone": "4166091800", "description": "ELLESMERE (150571)<br>428 ELLESMERE ROAD<br>SCARBOROUGH, ON<br>M1R4E6<br>4166091800"}}, {"geometry": {"type": "Point", "coordinates": [-79.290532, 45.0501]}, "type": "Feature", "properties": {"province": "ON", "city": "BRACEBRIDGE", "postal_code": "P1L1W9", "name": "BRACEBRIDGE", "address": "20 DEPOT DRIVE, R.R. 2", "id": 150572, "phone": "7056465600", "description": "BRACEBRIDGE (150572)<br>20 DEPOT DRIVE, R.R. 2<br>BRACEBRIDGE, ON<br>P1L1W9<br>7056465600"}}, {"geometry": {"type": "Point", "coordinates": [-79.268522, 43.902737]}, "type": "Feature", "properties": {"province": "ON", "city": "MARKHAM", "postal_code": "L6E0G5", "name": "MARKHAM,ON", "address": "1201 CASTLEMORE AVENUE", "id": 150573, "phone": "9052015500", "description": "MARKHAM,ON (150573)<br>1201 CASTLEMORE AVENUE<br>MARKHAM, ON<br>L6E0G5<br>9052015500"}}, {"geometry": {"type": "Point", "coordinates": [-79.252429, 43.852823]}, "type": "Feature", "properties": {"province": "ON", "city": "MARKHAM", "postal_code": "L3S4K7", "name": "MARKHAM EAST", "address": "50 KIRKHAM DRIVE", "id": 150574, "phone": "9052012590", "description": "MARKHAM EAST (150574)<br>50 KIRKHAM DRIVE<br>MARKHAM, ON<br>L3S4K7<br>9052012590"}}, {"geometry": {"type": "Point", "coordinates": [-79.246941, 43.180007]}, "type": "Feature", "properties": {"province": "ON", "city": "ST. CATHARINES", "postal_code": "L2N7R6", "name": "ST CATHARINES", "address": "20 YMCA DRIVE", "id": 150575, "phone": "9059375900", "description": "ST CATHARINES (150575)<br>20 YMCA DRIVE<br>ST. CATHARINES, ON<br>L2N7R6<br>9059375900"}}, {"geometry": {"type": "Point", "coordinates": [-79.236259, 43.738408]}, "type": "Feature", "properties": {"province": "ON", "city": "TORONTO", "postal_code": "M1J2E5", "name": "EGLINTON EAST", "address": "2911 EGLINTON AVENUE EAST", "id": 150576, "phone": "4162892500", "description": "EGLINTON EAST (150576)<br>2911 EGLINTON AVENUE EAST<br>TORONTO, ON<br>M1J2E5<br>4162892500"}}, {"geometry": {"type": "Point", "coordinates": [-79.220445, 45.341195]}, "type": "Feature", "properties": {"province": "ON", "city": "HUNTSVILLE", "postal_code": "P1H0A2", "name": "HUNTSVILLE", "address": "9 OTT STREET", "id": 150577, "phone": "7057885000", "description": "HUNTSVILLE (150577)<br>9 OTT STREET<br>HUNTSVILLE, ON<br>P1H0A2<br>7057885000"}}, {"geometry": {"type": "Point", "coordinates": [-79.196165, 43.801807]}, "type": "Feature", "properties": {"province": "ON", "city": "TORONTO", "postal_code": "M1B5N6", "name": "MORNINGSIDE", "address": "60 GRAND MARSHALL DRIVE", "id": 150578, "phone": "4162833166", "description": "MORNINGSIDE (150578)<br>60 GRAND MARSHALL DRIVE<br>TORONTO, ON<br>M1B5N6<br>4162833166"}}, {"geometry": {"type": "Point", "coordinates": [-79.114746, 43.102299]}, "type": "Feature", "properties": {"province": "ON", "city": "NIAGARA FALLS", "postal_code": "L2E7K5", "name": "NIAGARA FALLS", "address": "6940 MORRISON STREET", "id": 150579, "phone": "9053717470", "description": "NIAGARA FALLS (150579)<br>6940 MORRISON STREET<br>NIAGARA FALLS, ON<br>L2E7K5<br>9053717470"}}, {"geometry": {"type": "Point", "coordinates": [-79.094708, 43.829357]}, "type": "Feature", "properties": {"province": "ON", "city": "PICKERING", "postal_code": "L1V1B5", "name": "PICKERING", "address": "1105 KINGSTON ROAD HIGHWAY", "id": 150580, "phone": "9054212000", "description": "PICKERING (150580)<br>1105 KINGSTON ROAD HIGHWAY<br>PICKERING, ON<br>L1V1B5<br>9054212000"}}, {"geometry": {"type": "Point", "coordinates": [-79.014888, 43.866492]}, "type": "Feature", "properties": {"province": "ON", "city": "AJAX", "postal_code": "L1S4S7", "name": "AJAX", "address": "260 KINGSTON ROAD EAST", "id": 150581, "phone": "9054287939", "description": "AJAX (150581)<br>260 KINGSTON ROAD EAST<br>AJAX, ON<br>L1S4S7<br>9054287939"}}, {"geometry": {"type": "Point", "coordinates": [-78.950201, 43.920603]}, "type": "Feature", "properties": {"province": "ON", "city": "BROOKLIN", "postal_code": "L1R3K5", "name": "WHITBY NORTH", "address": "4200 GARDEN STREET", "id": 150582, "phone": "9056552900", "description": "WHITBY NORTH (150582)<br>4200 GARDEN STREET<br>BROOKLIN, ON<br>L1R3K5<br>9056552900"}}, {"geometry": {"type": "Point", "coordinates": [-78.898897, 43.868853]}, "type": "Feature", "properties": {"province": "ON", "city": "WHITBY", "postal_code": "L1N9K6", "name": "WHITBY", "address": "1700 VICTORIA STREET EAST", "id": 150583, "phone": "9055715900", "description": "WHITBY (150583)<br>1700 VICTORIA STREET EAST<br>WHITBY, ON<br>L1N9K6<br>9055715900"}}, {"geometry": {"type": "Point", "coordinates": [-78.845713, 43.94362]}, "type": "Feature", "properties": {"province": "ON", "city": "OSHAWA", "postal_code": "L1H7K5", "name": "OSHAWA", "address": "1481 HARMONY RD. N.", "id": 150584, "phone": "9057435600", "description": "OSHAWA (150584)<br>1481 HARMONY RD. N.<br>OSHAWA, ON<br>L1H7K5<br>9057435600"}}, {"geometry": {"type": "Point", "coordinates": [-78.709097, 43.911132]}, "type": "Feature", "properties": {"province": "ON", "city": "BOWMANVILLE", "postal_code": "L1C0C3", "name": "BOWMANVILLE", "address": "120 CLARINGTON BOULEVARD", "id": 150585, "phone": "9056975170", "description": "BOWMANVILLE (150585)<br>120 CLARINGTON BOULEVARD<br>BOWMANVILLE, ON<br>L1C0C3<br>9056975170"}}, {"geometry": {"type": "Point", "coordinates": [-78.324867, 44.288131]}, "type": "Feature", "properties": {"province": "ON", "city": "PETERBOROUGH", "postal_code": "K9J8J7", "name": "PETERBOROUGH", "address": "500 LANSDOWNE STREET WEST", "id": 150586, "phone": "7058764560", "description": "PETERBOROUGH (150586)<br>500 LANSDOWNE STREET WEST<br>PETERBOROUGH, ON<br>K9J8J7<br>7058764560"}}, {"geometry": {"type": "Point", "coordinates": [-78.202198, 43.977811]}, "type": "Feature", "properties": {"province": "ON", "city": "COBOURG", "postal_code": "K9A0A8", "name": "COBOURG", "address": "1050 DEPALMA DRIVE", "id": 150587, "phone": "9053777600", "description": "COBOURG (150587)<br>1050 DEPALMA DRIVE<br>COBOURG, ON<br>K9A0A8<br>9053777600"}}, {"geometry": {"type": "Point", "coordinates": [-77.409515, 44.187766]}, "type": "Feature", "properties": {"province": "ON", "city": "BELLEVILLE", "postal_code": "K8P5L8", "name": "BELLEVILLE", "address": "210 BELL BLVD", "id": 150588, "phone": "6139615340", "description": "BELLEVILLE (150588)<br>210 BELL BLVD<br>BELLEVILLE, ON<br>K8P5L8<br>6139615340"}}, {"geometry": {"type": "Point", "coordinates": [-77.077731, 45.814118]}, "type": "Feature", "properties": {"province": "ON", "city": "PEMBROKE", "postal_code": "K8A0A5", "name": "PEMBROKE", "address": "27 ROBINSON LANE", "id": 150589, "phone": "6137326550", "description": "PEMBROKE (150589)<br>27 ROBINSON LANE<br>PEMBROKE, ON<br>K8A0A5<br>6137326550"}}, {"geometry": {"type": "Point", "coordinates": [-76.566158, 44.243204]}, "type": "Feature", "properties": {"province": "ON", "city": "KINGSTON", "postal_code": "K7M3X9", "name": "KINGSTON", "address": "606 GARDINERS ROAD", "id": 150590, "phone": "6133843511", "description": "KINGSTON (150590)<br>606 GARDINERS ROAD<br>KINGSTON, ON<br>K7M3X9<br>6133843511"}}, {"geometry": {"type": "Point", "coordinates": [-75.916642, 45.302099]}, "type": "Feature", "properties": {"province": "ON", "city": "KANATA", "postal_code": "K2V1B9", "name": "KANATA", "address": "10 FRANK NIGHBOR PLACE", "id": 150591, "phone": "6132717577", "description": "KANATA (150591)<br>10 FRANK NIGHBOR PLACE<br>KANATA, ON<br>K2V1B9<br>6132717577"}}, {"geometry": {"type": "Point", "coordinates": [-75.757887, 45.352821]}, "type": "Feature", "properties": {"province": "ON", "city": "OTTAWA", "postal_code": "K2C0C6", "name": "NEPEAN", "address": "1900 BASELINE ROAD", "id": 150592, "phone": "6137235900", "description": "NEPEAN (150592)<br>1900 BASELINE ROAD<br>OTTAWA, ON<br>K2C0C6<br>6137235900"}}, {"geometry": {"type": "Point", "coordinates": [-75.751583, 45.267182]}, "type": "Feature", "properties": {"province": "ON", "city": "NEPEAN", "postal_code": "K2J5M4", "name": "BARRHAVEN", "address": "3779 STRANDHERD DRIVE", "id": 150593, "phone": "6138437900", "description": "BARRHAVEN (150593)<br>3779 STRANDHERD DRIVE<br>NEPEAN, ON<br>K2J5M4<br>6138437900"}}, {"geometry": {"type": "Point", "coordinates": [-75.685894, 44.61684]}, "type": "Feature", "properties": {"province": "ON", "city": "BROCKVILLE", "postal_code": "K6V5T2", "name": "BROCKVILLE", "address": "2120 PARKDALE AVENUE", "id": 150594, "phone": "6134989600", "description": "BROCKVILLE (150594)<br>2120 PARKDALE AVENUE<br>BROCKVILLE, ON<br>K6V5T2<br>6134989600"}}, {"geometry": {"type": "Point", "coordinates": [-75.676427, 45.484319]}, "type": "Feature", "properties": {"province": "QC", "city": "GATINEAU", "postal_code": "J8P6M7", "name": "GATINEAU", "address": "243 MONTEE PAIEMENT", "id": 150595, "phone": "8192464060", "description": "GATINEAU (150595)<br>243 MONTEE PAIEMENT<br>GATINEAU, QC<br>J8P6M7<br>8192464060"}}, {"geometry": {"type": "Point", "coordinates": [-75.66108, 45.364708]}, "type": "Feature", "properties": {"province": "ON", "city": "OTTAWA", "postal_code": "K1V7Z8", "name": "SOUTH KEYS", "address": "2056 BANK STREET", "id": 150596, "phone": "6137395300", "description": "SOUTH KEYS (150596)<br>2056 BANK STREET<br>OTTAWA, ON<br>K1V7Z8<br>6137395300"}}, {"geometry": {"type": "Point", "coordinates": [-75.609302, 45.417247]}, "type": "Feature", "properties": {"province": "ON", "city": "GLOUCESTER", "postal_code": "K1B3L8", "name": "GLOUCESTER", "address": "1616 CYRVILLE ROAD", "id": 150597, "phone": "6137441700", "description": "GLOUCESTER (150597)<br>1616 CYRVILLE ROAD<br>GLOUCESTER, ON<br>K1B3L8<br>6137441700"}}, {"geometry": {"type": "Point", "coordinates": [-75.484122, 45.460068]}, "type": "Feature", "properties": {"province": "ON", "city": "ORLEANS", "postal_code": "K4A4C5", "name": "ORLEANS", "address": "2121 10TH LINE", "id": 150598, "phone": "6135902030", "description": "ORLEANS (150598)<br>2121 10TH LINE<br>ORLEANS, ON<br>K4A4C5<br>6135902030"}}, {"geometry": {"type": "Point", "coordinates": [-74.758602, 45.038518]}, "type": "Feature", "properties": {"province": "ON", "city": "CORNWALL", "postal_code": "K6J5X7", "name": "CORNWALL", "address": "1825 BROOKDALE AVENUE", "id": 150599, "phone": "6139304470", "description": "CORNWALL (150599)<br>1825 BROOKDALE AVENUE<br>CORNWALL, ON<br>K6J5X7<br>6139304470"}}, {"geometry": {"type": "Point", "coordinates": [-74.036354, 45.405495]}, "type": "Feature", "properties": {"province": "QC", "city": "VAUDREUIL-DORION", "postal_code": "J7V8C1", "name": "VAUDREUIL", "address": "55 BOULEVARD DE LA CITE DES JEUNES", "id": 150600, "phone": "4505102600", "description": "VAUDREUIL (150600)<br>55 BOULEVARD DE LA CITE DES JEUNES<br>VAUDREUIL-DORION, QC<br>J7V8C1<br>4505102600"}}, {"geometry": {"type": "Point", "coordinates": [-74.015881, 45.759127]}, "type": "Feature", "properties": {"province": "QC", "city": "ST.JEROME", "postal_code": "J7Y3P2", "name": "ST JEROME", "address": "1045 BOUL DU GRAND HERON", "id": 150601, "phone": "4505656020", "description": "ST JEROME (150601)<br>1045 BOUL DU GRAND HERON<br>ST.JEROME, QC<br>J7Y3P2<br>4505656020"}}, {"geometry": {"type": "Point", "coordinates": [-73.845299, 45.625627]}, "type": "Feature", "properties": {"province": "QC", "city": "BOISBRIAND", "postal_code": "J7H1S3", "name": "BOISBRIAND", "address": "2400 D'ANNEMASSE", "id": 150602, "phone": "4509716061", "description": "BOISBRIAND (150602)<br>2400 D'ANNEMASSE<br>BOISBRIAND, QC<br>J7H1S3<br>4509716061"}}, {"geometry": {"type": "Point", "coordinates": [-73.819119, 45.462127]}, "type": "Feature", "properties": {"province": "QC", "city": "POINTE-CLAIRE", "postal_code": "H9R1E9", "name": "POINTE CLAIRE", "address": "185 HYMUS BOULEVARD", "id": 150603, "phone": "5146308631", "description": "POINTE CLAIRE (150603)<br>185 HYMUS BOULEVARD<br>POINTE-CLAIRE, QC<br>H9R1E9<br>5146308631"}}, {"geometry": {"type": "Point", "coordinates": [-73.729485, 45.557908]}, "type": "Feature", "properties": {"province": "QC", "city": "LAVAL", "postal_code": "H7N6J5", "name": "LAVAL", "address": "1400 LE CORBUSIER BLVD", "id": 150604, "phone": "4506802225", "description": "LAVAL (150604)<br>1400 LE CORBUSIER BLVD<br>LAVAL, QC<br>H7N6J5<br>4506802225"}}, {"geometry": {"type": "Point", "coordinates": [-73.663692, 45.537178]}, "type": "Feature", "properties": {"province": "QC", "city": "MONTREAL", "postal_code": "H4N3L5", "name": "L'ACADIE", "address": "1000 RUE SAUVE OUEST", "id": 150605, "phone": "5143336868", "description": "L'ACADIE (150605)<br>1000 RUE SAUVE OUEST<br>MONTREAL, QC<br>H4N3L5<br>5143336868"}}, {"geometry": {"type": "Point", "coordinates": [-73.60956, 45.52817]}, "type": "Feature", "properties": {"province": "QC", "city": "MONTREAL", "postal_code": "H2S3S1", "name": "BEAUBIEN OUEST", "address": "100 RUE BEAUBIEN OUEST", "id": 150606, "phone": "5144908030", "description": "BEAUBIEN OUEST (150606)<br>100 RUE BEAUBIEN OUEST<br>MONTREAL, QC<br>H2S3S1<br>5144908030"}}, {"geometry": {"type": "Point", "coordinates": [-73.599571, 45.610604]}, "type": "Feature", "properties": {"province": "QC", "city": "ANJOU", "postal_code": "H1J2V7", "name": "ANJOU", "address": "11300  RENAUDE LAPOINTE", "id": 150607, "phone": "5143563650", "description": "ANJOU (150607)<br>11300  RENAUDE LAPOINTE<br>ANJOU, QC<br>H1J2V7<br>5143563650"}}, {"geometry": {"type": "Point", "coordinates": [-73.593851, 45.476255]}, "type": "Feature", "properties": {"province": "QC", "city": "MONTREAL", "postal_code": "H4C1E2", "name": "SAINT-HENRI", "address": "4625 SAINT-ANTOINE WEST", "id": 150608, "phone": "5148464770", "description": "SAINT-HENRI (150608)<br>4625 SAINT-ANTOINE WEST<br>MONTREAL, QC<br>H4C1E2<br>5148464770"}}, {"geometry": {"type": "Point", "coordinates": [-73.584831, 45.392484]}, "type": "Feature", "properties": {"province": "QC", "city": "ST. CONSTANT", "postal_code": "J5A2S6", "name": "ST CONSTANT", "address": "490 VOIE DE LA DESSERTE ROUTE # 132", "id": 150609, "phone": "4506332030", "description": "ST CONSTANT (150609)<br>490 VOIE DE LA DESSERTE ROUTE # 132<br>ST. CONSTANT, QC<br>J5A2S6<br>4506332030"}}, {"geometry": {"type": "Point", "coordinates": [-73.509159, 45.718529]}, "type": "Feature", "properties": {"province": "QC", "city": "LACHENAIE", "postal_code": "J6V1N9", "name": "LACHENAIE", "address": "660 MONTEE DES PIONNIERS", "id": 150610, "phone": "4506574400", "description": "LACHENAIE (150610)<br>660 MONTEE DES PIONNIERS<br>LACHENAIE, QC<br>J6V1N9<br>4506574400"}}, {"geometry": {"type": "Point", "coordinates": [-73.463373, 45.486638]}, "type": "Feature", "properties": {"province": "QC", "city": "GREENFIELD PARK", "postal_code": "J4V3R4", "name": "GREENFIELD PARK", "address": "500 AUGUSTE", "id": 150611, "phone": "4504625020", "description": "GREENFIELD PARK (150611)<br>500 AUGUSTE<br>GREENFIELD PARK, QC<br>J4V3R4<br>4504625020"}}, {"geometry": {"type": "Point", "coordinates": [-73.385649, 45.505542]}, "type": "Feature", "properties": {"province": "QC", "city": "ST. BRUNO", "postal_code": "J3V6N8", "name": "ST BRUNO", "address": "901 BLVD CLAUDE-JUTRA", "id": 150612, "phone": "4504612000", "description": "ST BRUNO (150612)<br>901 BLVD CLAUDE-JUTRA<br>ST. BRUNO, QC<br>J3V6N8<br>4504612000"}}, {"geometry": {"type": "Point", "coordinates": [-73.283301, 45.328824]}, "type": "Feature", "properties": {"province": "QC", "city": "ST. JEAN SUR RICHELIEU", "postal_code": "J3A1V1", "name": "ST JEAN SUR RICHELIEU", "address": "850 DOUGLAS STREET", "id": 150613, "phone": "4503498100", "description": "ST JEAN SUR RICHELIEU (150613)<br>850 DOUGLAS STREET<br>ST. JEAN SUR RICHELIEU, QC<br>J3A1V1<br>4503498100"}}, {"geometry": {"type": "Point", "coordinates": [-72.750958, 45.420545]}, "type": "Feature", "properties": {"province": "QC", "city": "GRANBY", "postal_code": "J2G8C9", "name": "GRANBY", "address": "165 RUE SIMONDS NORD", "id": 150614, "phone": "4503755544", "description": "GRANBY (150614)<br>165 RUE SIMONDS NORD<br>GRANBY, QC<br>J2G8C9<br>4503755544"}}, {"geometry": {"type": "Point", "coordinates": [-72.577097, 46.331706]}, "type": "Feature", "properties": {"province": "QC", "city": "TROIS RIVIERES", "postal_code": "G9A6P9", "name": "TROIS RIVIERES", "address": "4500 REAL-PROULX", "id": 150615, "phone": "8193793990", "description": "TROIS RIVIERES (150615)<br>4500 REAL-PROULX<br>TROIS RIVIERES, QC<br>G9A6P9<br>8193793990"}}, {"geometry": {"type": "Point", "coordinates": [-71.968698, 45.420566]}, "type": "Feature", "properties": {"province": "QC", "city": "VILLE DE SHERBROOKE", "postal_code": "J1L3C5", "name": "SHERBROOKE", "address": "1355 BOULEVARD DU PLATEAU SAINT-JOSEPH", "id": 150616, "phone": "8193484481", "description": "SHERBROOKE (150616)<br>1355 BOULEVARD DU PLATEAU SAINT-JOSEPH<br>VILLE DE SHERBROOKE, QC<br>J1L3C5<br>8193484481"}}, {"geometry": {"type": "Point", "coordinates": [-71.927627, 46.064313]}, "type": "Feature", "properties": {"province": "QC", "city": "VICTORIAVILLE", "postal_code": "G6P6S2", "name": "VICTORIAVILLE", "address": "160 BOULEVARD ARTHABASKA OUEST", "id": 150617, "phone": "8197520700", "description": "VICTORIAVILLE (150617)<br>160 BOULEVARD ARTHABASKA OUEST<br>VICTORIAVILLE, QC<br>G6P6S2<br>8197520700"}}, {"geometry": {"type": "Point", "coordinates": [-71.34938, 46.780898]}, "type": "Feature", "properties": {"province": "QC", "city": "STE. FOY", "postal_code": "G2G2R5", "name": "STE-FOY", "address": "1516 RUE JULES-VERNE", "id": 150618, "phone": "4188728007", "description": "STE-FOY (150618)<br>1516 RUE JULES-VERNE<br>STE. FOY, QC<br>G2G2R5<br>4188728007"}}, {"geometry": {"type": "Point", "coordinates": [-71.277061, 46.730435]}, "type": "Feature", "properties": {"province": "QC", "city": "VILLE DE LEVIS", "postal_code": "G6W8A8", "name": "SAINT ROMUALD", "address": "50 RUE DE LA CONCORDE", "id": 150619, "phone": "4188347050", "description": "SAINT ROMUALD (150619)<br>50 RUE DE LA CONCORDE<br>VILLE DE LEVIS, QC<br>G6W8A8<br>4188347050"}}, {"geometry": {"type": "Point", "coordinates": [-71.272632, 46.842732]}, "type": "Feature", "properties": {"province": "QC", "city": "QUEBEC CITY", "postal_code": "G2J1R8", "name": "LEBOURGNEUF", "address": "300 RUE BOUVIER", "id": 150620, "phone": "4186348880", "description": "LEBOURGNEUF (150620)<br>300 RUE BOUVIER<br>QUEBEC CITY, QC<br>G2J1R8<br>4186348880"}}, {"geometry": {"type": "Point", "coordinates": [-66.662018, 45.938852]}, "type": "Feature", "properties": {"province": "NB", "city": "FREDERICTON", "postal_code": "E3C0A4", "name": "FREDERICTON", "address": "1450 REGENT STREET", "id": 150621, "phone": "5064629460", "description": "FREDERICTON (150621)<br>1450 REGENT STREET<br>FREDERICTON, NB<br>E3C0A4<br>5064629460"}}, {"geometry": {"type": "Point", "coordinates": [-66.025521, 45.303846]}, "type": "Feature", "properties": {"province": "NB", "city": "SAINT JOHN", "postal_code": "E2J5E5", "name": "SAINT JOHN", "address": "55 DEPOT COURT", "id": 150622, "phone": "5066329440", "description": "SAINT JOHN (150622)<br>55 DEPOT COURT<br>SAINT JOHN, NB<br>E2J5E5<br>5066329440"}}, {"geometry": {"type": "Point", "coordinates": [-64.824994, 46.115879]}, "type": "Feature", "properties": {"province": "NB", "city": "MONCTON", "postal_code": "E1C0G9", "name": "MONCTON", "address": "235 MAPLETON ROAD", "id": 150623, "phone": "5068538150", "description": "MONCTON (150623)<br>235 MAPLETON ROAD<br>MONCTON, NB<br>E1C0G9<br>5068538150"}}, {"geometry": {"type": "Point", "coordinates": [-64.437666, 45.069239]}, "type": "Feature", "properties": {"province": "NS", "city": "NEW MINAS", "postal_code": "B4N3E5", "name": "NEW MINAS", "address": "9334 COMMERCIAL STREET", "id": 150624, "phone": "9026813460", "description": "NEW MINAS (150624)<br>9334 COMMERCIAL STREET<br>NEW MINAS, NS<br>B4N3E5<br>9026813460"}}, {"geometry": {"type": "Point", "coordinates": [-63.671761, 44.656836]}, "type": "Feature", "properties": {"province": "NS", "city": "HALIFAX", "postal_code": "B3S1L8", "name": "HALIFAX", "address": "368 LACEWOOD DRIVE", "id": 150625, "phone": "9024573480", "description": "HALIFAX (150625)<br>368 LACEWOOD DRIVE<br>HALIFAX, NS<br>B3S1L8<br>9024573480"}}, {"geometry": {"type": "Point", "coordinates": [-63.565733, 44.695894]}, "type": "Feature", "properties": {"province": "NS", "city": "DARTMOUTH", "postal_code": "B3B0B6", "name": "DARTMOUTH", "address": "40 FINNIAN ROW, DARTMOUTH CROSSINGS", "id": 150626, "phone": "9024604700", "description": "DARTMOUTH (150626)<br>40 FINNIAN ROW, DARTMOUTH CROSSINGS<br>DARTMOUTH, NS<br>B3B0B6<br>9024604700"}}, {"geometry": {"type": "Point", "coordinates": [-63.154738, 46.261621]}, "type": "Feature", "properties": {"province": "PE", "city": "CHARLOTTETOWN", "postal_code": "C1E2E5", "name": "CHARLOTTETOWN", "address": "60 BUCHANAN DRIVE", "id": 150627, "phone": "9026263140", "description": "CHARLOTTETOWN (150627)<br>60 BUCHANAN DRIVE<br>CHARLOTTETOWN, PE<br>C1E2E5<br>9026263140"}}, {"geometry": {"type": "Point", "coordinates": [-60.145068, 46.149779]}, "type": "Feature", "properties": {"province": "NS", "city": "SYDNEY", "postal_code": "B1P7H2", "name": "SYDNEY", "address": "50 SYDNEY PORT ACCESS ROAD", "id": 150628, "phone": "9025643250", "description": "SYDNEY (150628)<br>50 SYDNEY PORT ACCESS ROAD<br>SYDNEY, NS<br>B1P7H2<br>9025643250"}}, {"geometry": {"type": "Point", "coordinates": [-52.781172, 47.554849]}, "type": "Feature", "properties": {"province": "NL", "city": "ST. JOHNS", "postal_code": "A1B5C7", "name": "ST JOHN'S", "address": "70 KELSEY DRIVE", "id": 150629, "phone": "7095702400", "description": "ST JOHN'S (150629)<br>70 KELSEY DRIVE<br>ST. JOHNS, NL<br>A1B5C7<br>7095702400"}}]}